City,Lat,Lng,Max Temp,Humidity,Cloudiness,Wind Speed,Country,Date
Guerrero Negro,27.9769,-114.0611,69.17,35,0,20.13,MX,2022-01-21 01:27:02
Kapaa,22.0752,-159.319,80.47,75,0,11.5,US,2022-01-21 01:24:42
Saint-Philippe,-21.3585,55.7679,78.35,81,51,8.97,RE,2022-01-21 01:27:03
Bilibino,68.0546,166.4372,-28.17,82,4,3.38,RU,2022-01-21 01:27:03
Tasiilaq,65.6145,-37.6368,37.56,93,100,16.15,GL,2022-01-21 01:27:03
Chicama,-7.8447,-79.1469,66.74,74,63,8.46,PE,2022-01-21 01:27:04
Castro,-24.7911,-50.0119,66.58,90,93,3.62,BR,2022-01-21 01:27:04
Hilo,19.7297,-155.09,78.8,83,100,10.36,US,2022-01-21 01:25:23
Chokurdakh,70.6333,147.9167,-36.63,97,94,5.99,RU,2022-01-21 01:27:04
Ipixuna,-1.7625,-48.8043,80.55,95,11,3.06,BR,2022-01-21 01:27:05
Leningradskiy,69.3833,178.4167,-32.73,92,6,3.87,RU,2022-01-21 01:27:05
Hermanus,-34.4187,19.2345,59.9,85,0,9.51,ZA,2022-01-21 01:27:05
Areia Branca,-4.9561,-37.1369,81.68,69,100,15.9,BR,2022-01-21 01:27:06
Skelleftea,64.7507,20.9528,28.76,52,6,3.0,SE,2022-01-21 01:27:06
Port Elizabeth,-33.918,25.5701,72.1,83,100,17.27,ZA,2022-01-21 01:27:06
Hithadhoo,-0.6,73.0833,81.82,74,100,7.56,MV,2022-01-21 01:27:07
Nouadhibou,20.931,-17.0347,66.18,88,100,6.91,MR,2022-01-21 01:27:07
Torbay,47.6666,-52.7314,44.58,94,100,18.41,CA,2022-01-21 01:26:46
Rikitea,-23.1203,-134.9692,78.71,75,100,6.85,PF,2022-01-21 01:24:49
Narsaq,60.9167,-46.05,25.02,87,100,18.72,GL,2022-01-21 01:24:43
Lavrentiya,65.5833,-171.0,-17.25,93,5,11.1,RU,2022-01-21 01:27:08
Port Alfred,-33.5906,26.891,71.83,86,97,17.45,ZA,2022-01-21 01:27:08
Alofi,-19.0595,-169.9187,85.89,66,75,17.27,NU,2022-01-21 01:27:08
Juneau,58.3019,-134.4197,38.84,97,100,8.05,US,2022-01-21 01:27:09
Saint-Augustin,51.226,-58.6502,3.47,87,100,8.68,CA,2022-01-21 01:27:09
Pontes E Lacerda,-15.2261,-59.3353,75.56,80,22,1.57,BR,2022-01-21 01:27:09
San Quintin,30.4833,-115.95,63.64,58,0,5.5,MX,2022-01-21 01:27:10
Gejiu,23.306,103.1635,41.41,95,76,5.35,CN,2022-01-21 01:27:10
Ushuaia,-54.8,-68.3,58.66,51,0,9.22,AR,2022-01-21 01:24:06
Roseto Degli Abruzzi,42.6664,14.0227,45.19,91,9,4.59,IT,2022-01-21 01:27:10
Lata,40.1629,-8.3327,50.05,82,0,4.27,PT,2022-01-21 01:27:11
Cidreira,-30.1811,-50.2056,77.04,91,3,14.38,BR,2022-01-21 01:27:11
Wanning,18.8003,110.3967,70.09,80,88,6.29,CN,2022-01-21 01:27:11
Victoria,22.2855,114.1577,66.38,80,100,1.99,HK,2022-01-21 01:27:12
Bluff,-46.6,168.3333,58.8,76,100,17.67,NZ,2022-01-21 01:27:12
Tindivanam,12.25,79.65,68.27,84,100,2.33,IN,2022-01-21 01:27:12
Mimoso Do Sul,-21.0642,-41.3664,72.41,99,39,2.17,BR,2022-01-21 01:27:13
Pochutla,15.7432,-96.4661,78.62,80,2,3.58,MX,2022-01-21 01:27:13
Dingle,10.9995,122.6711,79.88,80,92,10.56,PH,2022-01-21 01:27:13
Nome,64.5011,-165.4064,5.07,72,100,16.11,US,2022-01-21 01:27:14
Baft,29.234,56.6057,31.44,60,0,1.88,IR,2022-01-21 01:27:14
Wiang Sa,8.6359,99.3666,82.02,85,25,1.88,TH,2022-01-21 01:27:14
Escanaba,45.7453,-87.0646,7.05,77,0,0.0,US,2022-01-21 01:27:15
Hobart,-42.8794,147.3294,81.27,40,20,1.01,AU,2022-01-21 01:26:14
Yellowknife,62.456,-114.3525,-10.68,77,100,23.02,CA,2022-01-21 01:24:34
Punta Arenas,-53.15,-70.9167,57.31,62,0,9.22,CL,2022-01-21 01:24:47
Atuona,-9.8,-139.0333,78.93,77,47,24.05,PF,2022-01-21 01:28:00
Zabid,14.1951,43.3152,75.27,77,93,11.45,YE,2022-01-21 01:28:15
Asau,46.4333,26.4,31.12,77,73,7.83,RO,2022-01-21 01:28:16
North Bend,43.4065,-124.2243,52.25,99,100,11.5,US,2022-01-21 01:28:16
Jiangyou,31.7667,104.7167,46.24,87,100,3.0,CN,2022-01-21 01:28:16
Merano,46.6682,11.1595,39.52,69,1,9.28,IT,2022-01-21 01:28:17
Saskylakh,71.9167,114.0833,-21.3,93,60,7.07,RU,2022-01-21 01:28:02
Dikson,73.5069,80.5464,4.68,94,100,13.47,RU,2022-01-21 01:28:17
Vaini,-21.2,-175.2,81.77,78,94,16.73,TO,2022-01-21 01:28:18
Constitucion,-35.3333,-72.4167,54.57,78,0,10.33,CL,2022-01-21 01:28:18
Albany,42.6001,-73.9662,15.28,63,27,13.0,US,2022-01-21 01:24:48
Talnakh,69.4865,88.3972,10.67,95,100,13.67,RU,2022-01-21 01:28:18
Ulaangom,49.9811,92.0667,-2.25,99,100,0.6,MN,2022-01-21 01:28:19
Mataura,-46.1927,168.8643,58.48,61,93,8.77,NZ,2022-01-21 01:28:19
Xining,36.6167,101.7667,23.88,44,0,1.23,CN,2022-01-21 01:26:26
Sira,13.7453,76.9092,65.68,51,77,5.66,IN,2022-01-21 01:28:19
Binzhou,37.3667,118.0167,26.22,64,18,6.64,CN,2022-01-21 01:28:20
Hasaki,35.7333,140.8333,39.6,46,1,19.62,JP,2022-01-21 01:28:20
Bengkulu,-3.8004,102.2655,75.6,86,100,3.87,ID,2022-01-21 01:28:20
Ostrovnoy,68.0531,39.5131,11.86,89,89,6.06,RU,2022-01-21 01:28:21
Lebu,-37.6167,-73.65,55.53,78,0,2.06,CL,2022-01-21 01:27:34
Tiksi,71.6872,128.8694,-14.04,96,61,10.18,RU,2022-01-21 01:28:21
Port-Gentil,-0.7193,8.7815,79.43,79,100,7.18,GA,2022-01-21 01:28:09
Khatanga,71.9667,102.5,-3.57,93,100,8.43,RU,2022-01-21 01:28:21
Norman Wells,65.282,-126.8329,-16.56,63,75,18.41,CA,2022-01-21 01:28:22
Meulaboh,4.1363,96.1285,76.77,85,15,3.89,ID,2022-01-21 01:28:22
Raudeberg,61.9875,5.1352,35.87,89,100,4.0,NO,2022-01-21 01:28:22
East London,-33.0153,27.9116,71.76,82,98,17.65,ZA,2022-01-21 01:28:23
Barrow,71.2906,-156.7887,-20.18,76,0,8.05,US,2022-01-21 01:28:23
Maxixe,-23.8597,35.3472,72.64,79,100,8.5,MZ,2022-01-21 01:28:23
Fairbanks,64.8378,-147.7164,1.09,79,0,11.5,US,2022-01-21 01:28:24
Upernavik,72.7868,-56.1549,-0.8,92,100,11.05,GL,2022-01-21 01:28:24
Aswan,24.0934,32.907,43.9,49,0,5.75,EG,2022-01-21 01:24:10
Alampur,15.8833,78.15,67.91,63,66,2.13,IN,2022-01-21 01:28:24
Ratangarh,28.0833,74.6,52.92,70,0,8.1,IN,2022-01-21 01:28:25
Sergeyevka,53.88,67.4158,3.65,93,100,3.38,KZ,2022-01-21 01:28:25
Xinpu,34.5997,119.1594,35.31,59,100,7.78,CN,2022-01-21 01:28:25
Lakes Entrance,-37.8811,147.981,77.58,54,0,6.26,AU,2022-01-21 01:28:26
Bethel,41.3712,-73.414,26.04,61,0,13.8,US,2022-01-21 01:28:26
Quatre Cocos,-20.2078,57.7625,80.71,83,41,13.89,MU,2022-01-21 01:28:26
Kodiak,57.79,-152.4072,38.71,87,100,25.32,US,2022-01-21 01:28:27
Kollam,8.8833,76.6,78.67,86,89,5.14,IN,2022-01-21 01:29:27
Zeerust,-25.5369,26.0751,65.21,57,6,5.3,ZA,2022-01-21 01:29:27
Chapais,49.7834,-74.8492,-22.22,100,24,4.34,CA,2022-01-21 01:28:22
Itaguai,-22.8522,-43.7753,80.28,89,40,4.61,BR,2022-01-21 01:28:04
Nantucket,41.2835,-70.0995,34.09,70,100,22.1,US,2022-01-21 01:26:12
Kuytun,54.3419,101.5036,-10.52,100,93,0.65,RU,2022-01-21 01:29:28
Bredasdorp,-34.5322,20.0403,58.28,93,0,3.44,ZA,2022-01-21 01:27:32
Bathsheba,13.2167,-59.5167,77.61,78,40,20.71,BB,2022-01-21 01:29:28
Henties Bay,-22.116,14.2845,68.86,88,100,4.25,NA,2022-01-21 01:29:29
Port Lincoln,-34.7333,135.8667,72.72,79,100,11.79,AU,2022-01-21 01:29:29
Lingao,19.9103,109.6859,67.96,80,19,12.55,CN,2022-01-21 01:29:29
Qaanaaq,77.484,-69.3632,16.36,86,100,2.59,GL,2022-01-21 01:29:29
Bereda,43.2686,-7.5406,46.92,98,7,8.41,ES,2022-01-21 01:29:30
New Norfolk,-42.7826,147.0587,80.91,30,8,1.99,AU,2022-01-21 01:29:30
Mahanoro,-19.9,48.8,72.5,87,100,9.98,MG,2022-01-21 01:29:30
Butaritari,3.0707,172.7902,81.84,72,100,17.56,KI,2022-01-21 01:24:44
Zarubino,42.63,131.0922,12.52,51,3,7.65,RU,2022-01-21 01:29:31
Novaya Igirma,57.1334,103.9112,-11.61,100,89,2.33,RU,2022-01-21 01:29:31
Fortuna,40.5982,-124.1573,55.42,92,75,1.99,US,2022-01-21 01:27:48
Boddam,57.4667,-1.7833,43.18,79,100,19.8,GB,2022-01-21 01:29:32
Anloga,5.7947,0.8973,73.62,59,21,2.73,GH,2022-01-21 01:29:32
Pachino,36.7186,15.0907,49.6,73,45,13.44,IT,2022-01-21 01:29:32
Iqaluit,63.7506,-68.5145,-27.31,74,40,1.99,CA,2022-01-21 01:29:33
Carnarvon,-24.8667,113.6333,98.67,23,0,14.97,AU,2022-01-21 01:27:59
Strezhevoy,60.7333,77.5889,13.98,95,100,7.36,RU,2022-01-21 01:29:33
Puerto Ayora,-0.7393,-90.3518,73.6,89,84,9.04,EC,2022-01-21 01:29:33
Mama,58.3106,112.8986,-8.37,97,98,5.35,RU,2022-01-21 01:29:34
Naze,28.3667,129.4833,58.12,59,100,13.02,JP,2022-01-21 01:29:34
Sinnamary,5.3833,-52.95,77.02,90,69,12.26,GF,2022-01-21 01:29:34
Vardo,70.3705,31.1107,30.65,77,98,32.99,NO,2022-01-21 01:29:35
Ust-Tsilma,65.441,52.1498,18.16,92,98,8.19,RU,2022-01-21 01:29:35
Digby,44.6169,-65.7655,24.31,79,100,15.14,CA,2022-01-21 01:29:35
Mehamn,71.0357,27.8492,26.47,78,100,23.44,NO,2022-01-21 01:29:36
Mapimi,25.8167,-103.85,57.97,43,98,8.12,MX,2022-01-21 01:29:36
Cape Town,-33.9258,18.4232,64.89,82,0,4.0,ZA,2022-01-21 01:25:01
Lorengau,-2.0226,147.2712,83.52,77,94,8.19,PG,2022-01-21 01:29:36
Te Anau,-45.4167,167.7167,64.02,57,84,2.77,NZ,2022-01-21 01:29:37
Los Llanos De Aridane,28.6585,-17.9182,60.55,88,0,4.0,ES,2022-01-21 01:29:37
Necochea,-38.5473,-58.7368,71.04,88,100,18.3,AR,2022-01-21 01:29:37
Mkushi,-13.6202,29.3939,63.16,97,100,3.65,ZM,2022-01-21 01:29:38
Kaitangata,-46.2817,169.8464,62.92,65,98,10.65,NZ,2022-01-21 01:29:38
Provideniya,64.3833,-173.3,1.51,60,0,15.66,RU,2022-01-21 01:29:38
Bahir Dar,11.5936,37.3908,58.84,56,62,1.79,ET,2022-01-21 01:29:39
Krasnoselkup,65.7,82.4667,8.55,94,95,15.93,RU,2022-01-21 01:30:39
Teguise,29.0605,-13.564,62.82,59,0,6.91,ES,2022-01-21 01:30:39
Ewa Beach,21.3156,-158.0072,82.35,65,0,5.99,US,2022-01-21 01:30:40
Snyder,32.7179,-100.9176,28.53,42,100,9.22,US,2022-01-21 01:30:40
Padang,-0.9492,100.3543,77.05,68,98,2.98,ID,2022-01-21 01:30:15
Batticaloa,7.7102,81.6924,71.91,75,79,5.41,LK,2022-01-21 01:30:40
Yaita,36.8,139.9333,28.69,53,99,10.33,JP,2022-01-21 01:30:41
Villazon,-22.0866,-65.5942,51.26,71,89,3.94,BO,2022-01-21 01:30:41
Puerto Madryn,-42.7692,-65.0385,65.93,95,61,13.8,AR,2022-01-21 01:30:41
Mayskiy,47.6931,40.1025,24.44,96,100,11.48,RU,2022-01-21 01:30:42
Gizo,-8.103,156.8419,78.6,86,100,5.91,SB,2022-01-21 01:30:42
Murray Bridge,-35.1167,139.2667,91.15,28,100,20.0,AU,2022-01-21 01:30:43
Utete,-7.986,38.758,73.54,98,100,1.9,TZ,2022-01-21 01:30:43
Anadyr,64.75,177.4833,-34.01,65,20,6.71,RU,2022-01-21 01:30:43
Hami,42.8,93.45,27.63,42,100,4.34,CN,2022-01-21 01:30:43
Santa Isabel Do Rio Negro,-0.4139,-65.0192,73.18,98,100,2.57,BR,2022-01-21 01:30:44
Chuy,-33.6971,-53.4616,74.7,95,38,10.33,UY,2022-01-21 01:30:44
Saldanha,-33.0117,17.9442,60.85,86,0,12.84,ZA,2022-01-21 01:30:45
Saint George,37.1041,-113.5841,54.19,33,0,1.01,US,2022-01-21 01:26:11
Queanbeyan,-35.35,149.2333,72.37,62,100,10.36,AU,2022-01-21 01:30:45
Ayan,56.45,138.1667,-0.08,75,12,6.11,RU,2022-01-21 01:30:45
Ribeira Grande,38.5167,-28.7,63.0,82,40,9.22,PT,2022-01-21 01:30:46
Limon,10.0,-83.0333,76.68,80,12,3.13,CR,2022-01-21 01:30:46
Cherskiy,68.75,161.3,-38.72,99,19,1.59,RU,2022-01-21 01:30:46
Busselton,-33.65,115.3333,95.04,27,1,5.53,AU,2022-01-21 01:30:47
Yulara,-25.2406,130.9889,82.24,61,75,10.36,AU,2022-01-21 01:30:47
Amga,60.8953,131.9608,-24.29,96,76,1.68,RU,2022-01-21 01:30:47
Kenora,49.8167,-94.4337,-6.23,70,0,11.5,CA,2022-01-21 01:29:01
Maun,-19.9833,23.4167,74.48,50,99,8.68,BW,2022-01-21 01:30:48
Arraial Do Cabo,-22.9661,-42.0278,75.79,89,20,13.96,BR,2022-01-21 01:30:48
Sitka,57.0531,-135.33,39.09,93,100,9.22,US,2022-01-21 01:26:51
Jamestown,42.097,-79.2353,13.71,85,100,5.75,US,2022-01-21 01:26:55
Mar Del Plata,-38.0023,-57.5575,72.09,100,100,21.0,AR,2022-01-21 01:26:38
Swan Hill,-35.3378,143.5544,84.85,25,1,14.79,AU,2022-01-21 01:30:49
Lompoc,34.6391,-120.4579,67.14,82,0,5.75,US,2022-01-21 01:29:22
Jalu,29.0331,21.5482,51.3,56,6,5.88,LY,2022-01-21 01:30:49
Emba,48.8264,58.1442,1.42,93,61,6.51,KZ,2022-01-21 01:30:49
Samarai,-10.6167,150.6667,84.96,70,100,8.84,PG,2022-01-21 01:30:50
Calabozo,8.9242,-67.4293,82.27,42,20,7.31,VE,2022-01-21 01:30:50
Pyapon,16.2833,95.6833,73.83,73,78,5.32,MM,2022-01-21 01:30:50
Awjilah,29.1081,21.2869,51.13,59,6,3.69,LY,2022-01-21 01:30:51
Kondinskoye,59.6481,67.41,12.49,94,99,11.16,RU,2022-01-21 01:30:51
Pacific Grove,36.6177,-121.9166,63.57,85,0,4.0,US,2022-01-21 01:30:27
Isangel,-19.55,169.2667,84.31,84,75,4.61,VU,2022-01-21 01:30:52
Longyearbyen,78.2186,15.6401,10.24,67,20,2.3,SJ,2022-01-21 01:30:52
Lensk,60.7253,114.9278,9.36,94,100,5.95,RU,2022-01-21 01:30:52
Sao Filipe,14.8961,-24.4956,72.82,78,100,4.09,CV,2022-01-21 01:31:53
Santa Rosa,14.3122,121.1114,82.38,71,53,10.96,PH,2022-01-21 01:31:53
Grand Gaube,-20.0064,57.6608,81.0,87,31,5.99,MU,2022-01-21 01:31:53
Deputatskiy,69.3,139.9,-19.88,76,46,6.13,RU,2022-01-21 01:31:54
Kankan,10.3854,-9.3057,68.61,18,37,4.72,GN,2022-01-21 01:31:54
Santa Cruz,-17.8,-63.1667,76.46,83,89,5.75,BO,2022-01-21 01:28:43
Yueyang,29.3333,113.0919,46.08,88,100,9.1,CN,2022-01-21 01:31:55
Charters Towers,-20.1,146.2667,92.79,32,24,17.43,AU,2022-01-21 01:31:55
Kavieng,-2.5744,150.7967,82.58,73,100,3.11,PG,2022-01-21 01:31:55
Tuktoyaktuk,69.4541,-133.0374,-20.2,69,75,16.11,CA,2022-01-21 01:31:56
Thompson,55.7435,-97.8558,-3.84,71,75,11.5,CA,2022-01-21 01:31:56
Kabirwala,30.4068,71.8667,49.86,74,0,4.5,PK,2022-01-21 01:31:56
Touros,-5.1989,-35.4608,81.5,73,62,8.9,BR,2022-01-21 01:31:57
Ancud,-41.8697,-73.8203,56.73,89,11,8.97,CL,2022-01-21 01:31:57
Yorosso,12.3536,-4.7761,66.54,17,26,10.45,ML,2022-01-21 01:31:57
Lagoa,39.05,-27.9833,61.0,87,100,19.64,PT,2022-01-21 01:31:58
Atar,20.5169,-13.0499,71.24,15,100,9.08,MR,2022-01-21 01:31:58
Pedernales,18.0384,-71.744,76.73,64,0,6.89,DO,2022-01-21 01:31:58
Korla,41.7597,86.1469,26.55,49,9,3.85,CN,2022-01-21 01:31:59
Cururupu,-1.8283,-44.8683,75.11,93,11,3.56,BR,2022-01-21 01:31:59
Tessalit,20.1986,1.0114,55.09,22,0,10.74,ML,2022-01-21 01:31:59
Karaton,-6.3424,106.1045,81.95,82,100,4.07,ID,2022-01-21 01:31:59
Georgetown,5.4112,100.3354,82.33,88,20,5.01,MY,2022-01-21 01:30:15
Koboko,3.4136,30.9599,66.88,34,81,5.32,UG,2022-01-21 01:32:00
Port Hardy,50.6996,-127.4199,44.76,93,40,5.75,CA,2022-01-21 01:32:00
Suclayin,15.7568,121.5503,72.45,95,100,2.24,PH,2022-01-21 01:32:01
Half Moon Bay,37.4636,-122.4286,63.59,74,0,1.01,US,2022-01-21 01:32:01
Cedar City,37.6775,-113.0619,38.37,45,0,0.0,US,2022-01-21 01:32:01
Iquique,-20.2208,-70.1431,71.64,83,98,1.77,CL,2022-01-21 01:30:33
Alice Springs,-23.7,133.8833,93.22,42,64,5.01,AU,2022-01-21 01:30:11
Hovd,48.0056,91.6419,9.1,95,100,2.68,MN,2022-01-21 01:32:02
Lovozero,68.005,35.0117,12.34,98,74,8.5,RU,2022-01-21 01:32:02
Awbari,26.5921,12.7805,47.12,57,0,6.49,LY,2022-01-21 01:32:03
Eyl,7.9803,49.8164,71.94,83,76,16.31,SO,2022-01-21 01:32:03
Concepcion Del Oro,24.6333,-101.4167,57.09,32,100,5.7,MX,2022-01-21 01:32:03
Petropavlovsk-Kamchatskiy,53.0452,158.6483,25.39,59,75,2.24,RU,2022-01-21 01:32:03
Russell,32.3502,-85.1999,43.88,88,100,11.5,US,2022-01-21 01:32:04
Airai,-8.9266,125.4092,61.47,98,100,3.74,TL,2022-01-21 01:32:04
Vila Franca Do Campo,37.7167,-25.4333,61.21,84,7,14.92,PT,2022-01-21 01:32:04
Severodvinsk,64.5635,39.8302,32.11,98,100,8.34,RU,2022-01-21 01:32:05
Zhezkazgan,47.8043,67.7144,21.18,86,100,8.95,KZ,2022-01-21 01:32:05
Vallenar,-28.5708,-70.7581,74.41,39,0,3.27,CL,2022-01-21 01:32:05
Road Town,18.4167,-64.6167,77.04,88,40,14.97,VG,2022-01-21 01:32:06
Bath,51.3779,-2.3591,34.34,89,10,3.6,GB,2022-01-21 01:29:45
Mitu,1.1983,-70.1733,73.02,95,100,2.68,CO,2022-01-21 01:29:12
Morro Bay,35.3658,-120.8499,67.19,75,0,3.4,US,2022-01-21 01:30:09
Qui Nhon,13.7667,109.2333,71.46,83,98,7.65,VN,2022-01-21 01:31:25
Rurrenabaque,-14.4413,-67.5278,73.78,96,100,1.41,BO,2022-01-21 01:33:06
Kapoeta,4.7717,33.5903,74.16,31,100,4.47,SS,2022-01-21 01:33:07
Yumaguzino,52.9041,56.3933,-4.61,95,49,3.27,RU,2022-01-21 01:33:07
Floro,61.5996,5.0328,35.96,80,100,6.91,NO,2022-01-21 01:33:07
Husavik,66.0449,-17.3389,49.91,78,100,19.69,IS,2022-01-21 01:33:08
Ginir,7.1333,40.7,57.38,68,77,4.5,ET,2022-01-21 01:33:08
Whitehorse,60.7161,-135.0538,16.57,79,75,3.44,CA,2022-01-21 01:33:08
Mocuba,-16.8392,36.9856,67.59,98,29,4.09,MZ,2022-01-21 01:33:09
Gubkinskiy,64.434,76.5026,11.37,93,9,16.62,RU,2022-01-21 01:33:09
Kashirskoye,51.4194,39.6125,16.02,94,100,15.37,RU,2022-01-21 01:33:09
Luderitz,-26.6481,15.1594,67.84,84,31,8.3,NA,2022-01-21 01:33:10
Pimentel,-6.8367,-79.9342,71.06,83,56,13.27,PE,2022-01-21 01:33:10
Nikolskoye,59.7035,30.7861,30.09,97,92,3.87,RU,2022-01-21 01:33:11
Togul,53.465,85.9128,-9.51,100,40,3.02,RU,2022-01-21 01:33:11
Hamilton,39.1834,-84.5333,23.63,59,100,3.0,US,2022-01-21 01:33:11
Salalah,17.0151,54.0924,73.49,83,0,2.3,OM,2022-01-21 01:33:12
Bukama,-9.2,25.85,66.6,98,89,0.74,CD,2022-01-21 01:33:12
Nanortalik,60.1432,-45.2371,25.84,70,100,22.53,GL,2022-01-21 01:33:12
Port Shepstone,-30.7414,30.455,71.2,87,5,13.65,ZA,2022-01-21 01:33:13
Wiarton,44.7407,-81.1332,3.65,78,20,4.61,CA,2022-01-21 01:33:13
San Roque,36.2107,-5.3842,56.23,67,75,18.41,ES,2022-01-21 01:33:14
Aninoasa,44.9667,25.4333,34.88,64,100,7.36,RO,2022-01-21 01:33:14
Kiruna,67.8557,20.2251,1.15,89,12,4.9,SE,2022-01-21 01:33:14
Saint-Francois,46.4154,3.9054,34.48,83,0,11.5,FR,2022-01-21 01:33:14
Nuqui,5.7125,-77.2708,77.67,90,86,1.16,CO,2022-01-21 01:33:15
Liberal,37.0431,-100.921,22.23,73,0,8.05,US,2022-01-21 01:33:15
Vestmannaeyjar,63.4427,-20.2734,46.63,89,99,28.77,IS,2022-01-21 01:33:15
Kavaratti,10.5669,72.642,80.29,71,95,10.36,IN,2022-01-21 01:33:16
Banda Aceh,5.5577,95.3222,81.14,72,88,1.57,ID,2022-01-21 01:33:16
Rawson,-43.3002,-65.1023,65.93,92,84,19.1,AR,2022-01-21 01:33:17
Santa Lucia,27.9117,-15.5407,54.77,72,20,4.61,ES,2022-01-21 01:33:18
Imbituba,-28.24,-48.6703,82.29,93,8,10.0,BR,2022-01-21 01:33:18
Tikhvin,59.6451,33.5294,28.22,94,100,6.31,RU,2022-01-21 01:33:18
Xiongyue,40.1774,122.1228,16.86,46,1,4.63,CN,2022-01-21 01:33:19
Shingu,33.7333,135.9833,40.19,38,65,6.93,JP,2022-01-21 01:33:19
Mildura,-34.2,142.15,88.07,30,100,14.97,AU,2022-01-21 01:31:48
Aklavik,68.2191,-135.0107,-21.17,89,15,7.05,CA,2022-01-21 01:33:19
Broome,42.2506,-75.833,12.61,75,100,1.01,US,2022-01-21 01:33:20
San Cristobal,7.7669,-72.225,73.58,79,28,1.77,VE,2022-01-21 01:33:20
Aketi,2.7388,23.7833,66.87,59,91,2.26,CD,2022-01-21 01:33:20
Mareeba,-17.0,145.4333,83.44,77,100,8.12,AU,2022-01-21 01:33:21
San Juan,-31.5375,-68.5364,83.3,42,0,13.4,AR,2022-01-21 01:33:21
Olafsvik,64.8945,-23.7142,44.51,91,100,36.33,IS,2022-01-21 01:33:21
Ratnagiri,16.9833,73.3,68.58,61,60,4.43,IN,2022-01-21 01:33:22
Kaeo,-35.1,173.7833,80.33,43,33,5.1,NZ,2022-01-21 01:33:22
Kuching,1.55,110.3333,77.22,94,20,0.0,MY,2022-01-21 01:28:42
Vogan,6.3333,1.5333,73.22,55,44,4.59,TG,2022-01-21 01:34:22
Poso,-1.3959,120.7524,84.56,69,100,3.89,ID,2022-01-21 01:34:23
Amapa,1.0,-52.0,71.62,99,91,2.68,BR,2022-01-21 01:34:23
Lazaro Cardenas,17.9583,-102.2,76.26,73,100,3.04,MX,2022-01-21 01:34:23
La Paz,-16.5,-68.15,51.78,81,75,6.91,BO,2022-01-21 01:34:24
Tevriz,57.509,72.4042,4.71,93,100,4.25,RU,2022-01-21 01:34:24
Taruma,-22.7467,-50.5772,74.01,62,9,2.82,BR,2022-01-21 01:34:24
Namibe,-15.1961,12.1522,69.06,84,99,5.46,AO,2022-01-21 01:34:25
Tigzirt,36.8886,4.1198,48.52,81,67,6.31,DZ,2022-01-21 01:34:25
Avarua,-21.2078,-159.775,80.65,89,100,12.66,CK,2022-01-21 01:33:04
Moussoro,13.6408,16.4901,55.87,22,0,13.44,TD,2022-01-21 01:34:25
San Patricio,28.017,-97.5169,39.29,52,100,16.22,US,2022-01-21 01:34:26
Safaga,26.7292,33.9365,51.75,59,0,14.41,EG,2022-01-21 01:34:26
Kieta,-6.2167,155.6333,80.1,85,100,4.12,PG,2022-01-21 01:34:26
Kutum,14.2,24.6667,48.56,24,99,5.55,SD,2022-01-21 01:34:04
Corinth,37.9407,22.9573,51.46,77,0,6.15,GR,2022-01-21 01:34:27
Fernley,39.608,-119.2518,52.66,43,58,1.01,US,2022-01-21 01:34:27
Coihaique,-45.5752,-72.0662,56.01,100,100,3.44,CL,2022-01-21 01:34:28
Peleduy,59.6289,112.7406,7.65,95,100,6.89,RU,2022-01-21 01:34:28
Mackenzie,55.2999,-123.1698,30.42,100,75,2.3,CA,2022-01-21 01:34:28
Hervey Bay,-25.2986,152.8535,80.04,74,33,26.22,AU,2022-01-21 01:29:29
Lakatoro,-16.0999,167.4164,85.78,72,15,1.79,VU,2022-01-21 01:34:29
Yarada,17.65,83.2667,68.32,100,20,2.3,IN,2022-01-21 01:34:29
Judenburg,47.1667,14.6667,31.21,72,33,7.99,AT,2022-01-21 01:34:29
Kabinda,-6.1333,24.4833,65.35,96,100,1.01,CD,2022-01-21 01:34:30
Abu Kamal,34.4506,40.9171,36.07,54,3,7.94,SY,2022-01-21 01:34:30
Timra,62.487,17.3257,28.67,51,0,19.57,SE,2022-01-21 01:34:30
Paarl,-33.7338,18.9752,63.79,56,0,7.58,ZA,2022-01-21 01:34:30
Ilebo,-4.3167,20.5833,69.78,98,100,0.47,CD,2022-01-21 01:34:31
Sishui,35.6489,117.2758,32.23,40,100,5.1,CN,2022-01-21 01:34:31
Makaryev,57.8797,43.8069,15.6,91,100,11.63,RU,2022-01-21 01:34:31
Banjar,-8.19,114.9675,82.26,80,100,3.44,ID,2022-01-21 01:34:32
Antofagasta,-23.65,-70.4,63.68,82,64,6.15,CL,2022-01-21 01:31:40
Santa Maria,-29.6842,-53.8069,81.7,69,40,10.36,BR,2022-01-21 01:34:32
Pevek,69.7008,170.3133,-34.76,96,20,1.66,RU,2022-01-21 01:34:32
Lamu,-2.2717,40.902,79.02,86,100,11.5,KE,2022-01-21 01:34:33
Thinadhoo,0.5333,72.9333,81.37,75,100,8.97,MV,2022-01-21 01:34:33
Cabedelo,-6.9811,-34.8339,79.47,80,21,8.93,BR,2022-01-21 01:34:33
Saint Anthony,45.0205,-93.218,-0.18,70,0,4.61,US,2022-01-21 01:34:34
Coahuayana,18.7333,-103.6833,81.88,80,95,1.81,MX,2022-01-21 01:34:34
Codrington,-38.2667,141.9667,88.3,25,0,8.55,AU,2022-01-21 01:34:34
Terrace,54.5163,-128.6035,42.42,93,75,13.8,CA,2022-01-21 01:32:50
Hobyo,5.3505,48.5268,77.32,70,100,18.7,SO,2022-01-21 01:34:35
Urumqi,43.801,87.6005,20.35,93,100,2.24,CN,2022-01-21 01:34:35
Sobolevo,54.4299,31.8996,21.52,88,92,13.4,RU,2022-01-21 01:34:35
Poya,-21.35,165.15,83.73,75,100,10.78,NC,2022-01-21 01:34:35
Jasper,37.2001,-94.3502,17.67,54,0,1.99,US,2022-01-21 01:35:36
Laela,-8.5667,32.05,57.72,94,98,3.31,TZ,2022-01-21 01:35:36
Yen Bai,21.7,104.8667,60.67,89,100,0.89,VN,2022-01-21 01:35:36
Kununurra,-15.7667,128.7333,89.58,62,100,3.44,AU,2022-01-21 01:32:36
Sola,-13.8833,167.55,83.97,75,98,15.26,VU,2022-01-21 01:35:37
Vostok,46.4856,135.8833,-1.25,93,92,3.0,RU,2022-01-21 01:35:37
Acapulco,16.8634,-99.8901,80.42,74,75,5.75,MX,2022-01-21 01:32:07
Grinnell,41.743,-92.7224,-0.69,84,0,0.0,US,2022-01-21 01:35:38
Kulhudhuffushi,6.6221,73.07,80.37,64,100,3.67,MV,2022-01-21 01:35:38
Sibolga,1.7427,98.7792,80.98,66,100,1.14,ID,2022-01-21 01:35:38
Makakilo City,21.3469,-158.0858,80.92,65,0,8.05,US,2022-01-21 01:35:39
Omidiyeh,30.7597,49.705,37.15,39,0,16.62,IR,2022-01-21 01:35:39
Santa Ines,-3.6667,-45.38,73.18,95,99,2.59,BR,2022-01-21 01:35:39
Dir,35.2058,71.8756,34.12,61,45,7.11,PK,2022-01-21 01:35:40
Bubaque,11.2833,-15.8333,78.44,70,67,9.15,GW,2022-01-21 01:31:28
Mahebourg,-20.4081,57.7,80.89,89,75,14.97,MU,2022-01-21 01:35:40
Nanning,22.8167,108.3167,55.85,66,100,7.09,CN,2022-01-21 01:33:57
Toora-Khem,52.4675,96.11,11.61,97,100,2.3,RU,2022-01-21 01:35:41
Faanui,-16.4833,-151.75,81.59,74,100,18.79,PF,2022-01-21 01:35:41
Hofn,64.2539,-15.2082,42.94,87,100,15.28,IS,2022-01-21 01:35:41
Walvis Bay,-22.9575,14.5053,69.1,88,100,3.44,NA,2022-01-21 01:35:41
Paamiut,61.994,-49.6678,19.06,87,100,8.32,GL,2022-01-21 01:35:42
Salym,60.0625,71.4789,12.36,94,100,8.14,RU,2022-01-21 01:35:42
Tura,25.5198,90.2201,55.81,83,19,3.13,IN,2022-01-21 01:35:42
Pesceana,44.8833,24.15,35.55,78,96,7.56,RO,2022-01-21 01:35:44
Puerto Maldonado,-12.6,-69.1833,73.17,99,99,3.6,PE,2022-01-21 01:35:44
Sao Joao Da Barra,-21.6403,-41.0511,75.76,87,0,7.96,BR,2022-01-21 01:35:45
Oktyabrskoye,43.0645,44.7417,17.74,93,99,2.24,RU,2022-01-21 01:35:45
Naron,43.5167,-8.1528,51.6,70,22,15.95,ES,2022-01-21 01:35:45
Januaria,-15.4833,-44.3667,69.82,90,5,1.83,BR,2022-01-21 01:35:46
Pangnirtung,66.1451,-65.7125,-29.97,99,98,3.62,CA,2022-01-21 01:35:46
Haflong,25.1833,93.0333,54.07,90,84,2.08,IN,2022-01-21 01:35:46
Gedo,9.0167,37.45,49.33,67,86,3.53,ET,2022-01-21 01:35:47
Tigil,57.8,158.6667,9.25,85,5,3.91,RU,2022-01-21 01:35:47
Mandalgovi,45.7625,106.2708,8.02,80,9,7.36,MN,2022-01-21 01:35:47
Firozpur,30.9167,74.6,50.22,92,2,1.97,IN,2022-01-21 01:35:48
Kodinsk,58.6881,99.1844,2.35,100,96,2.26,RU,2022-01-21 01:35:48
Linqiong,30.4159,103.4609,48.02,88,100,5.14,CN,2022-01-21 01:35:48
Homer,59.6425,-151.5483,36.03,74,100,10.36,US,2022-01-21 01:35:49
Okha,53.5739,142.9478,-0.56,86,94,15.86,RU,2022-01-21 01:35:49
Praya,14.9215,-23.5087,72.14,78,75,9.22,CV,2022-01-21 01:35:49
Klaksvik,62.2266,-6.589,45.52,85,100,24.87,FO,2022-01-21 01:35:49
Tucuman,-26.8241,-65.2226,69.8,94,95,4.61,AR,2022-01-21 01:35:50
Goleta,36.8181,10.305,46.72,81,20,6.91,TN,2022-01-21 01:35:50
Corralillo,22.9819,-80.5856,72.9,88,0,7.31,CU,2022-01-21 01:35:50
Vila Velha,-20.3297,-40.2925,80.55,78,75,1.01,BR,2022-01-21 01:35:51
Beidao,34.5686,105.8933,37.78,88,100,2.53,CN,2022-01-21 01:36:51
Daru,-9.0763,143.2092,85.35,67,100,2.77,PG,2022-01-21 01:36:51
Tripoli,32.8752,13.1875,53.85,54,90,8.23,LY,2022-01-21 01:36:52
Tagusao,9.1924,117.8141,82.38,71,36,5.64,PH,2022-01-21 01:36:52
Wadena,46.4425,-95.1361,-7.82,76,0,3.44,US,2022-01-21 01:36:52
Pimenta Bueno,-11.6725,-61.1936,73.94,96,100,2.66,BR,2022-01-21 01:36:53
Comodoro Rivadavia,-45.8667,-67.5,60.66,94,40,2.3,AR,2022-01-21 01:33:54
Honiara,-9.4333,159.95,81.0,84,100,3.78,SB,2022-01-21 01:36:53
Taoudenni,22.6783,-3.9836,60.69,21,1,8.68,ML,2022-01-21 01:36:53
Araouane,18.9048,-3.5265,60.6,22,12,9.48,ML,2022-01-21 01:36:54
San Juan Del Sur,11.2529,-85.8705,80.33,72,6,21.61,NI,2022-01-21 01:36:54
Berdigestyakh,62.0989,126.6992,-6.16,98,99,4.47,RU,2022-01-21 01:36:54
Kruisfontein,-34.0033,24.7314,69.89,95,45,7.81,ZA,2022-01-21 01:36:55
Esperance,-33.8667,121.9,73.24,54,0,11.07,AU,2022-01-21 01:36:55
Westerland,54.9079,8.3033,39.22,65,100,25.32,DE,2022-01-21 01:36:56
Schrems,48.7833,15.0667,26.1,80,93,5.99,AT,2022-01-21 01:36:56
Majene,-3.5403,118.9707,76.32,91,100,4.59,ID,2022-01-21 01:36:18
Myaundzha,63.0494,147.1858,-28.25,86,7,3.0,RU,2022-01-21 01:36:56
Staunton,38.1496,-79.0717,27.64,52,0,1.99,US,2022-01-21 01:34:49
Nishihara,26.1842,127.7558,63.68,52,40,9.22,JP,2022-01-21 01:36:57
Noumea,-22.2763,166.4572,80.58,99,100,14.94,NC,2022-01-21 01:32:23
Manzanillo,20.3433,-77.1167,77.09,75,88,2.51,CU,2022-01-21 01:36:57
Bauchi,10.5,10.0,53.98,32,100,4.45,NG,2022-01-21 01:36:57
Ukiah,39.1502,-123.2078,58.64,91,6,3.02,US,2022-01-21 01:34:51
Energetik,51.7445,58.7934,-10.23,100,70,2.91,RU,2022-01-21 01:36:58
Kez,57.8979,53.7152,17.33,91,100,9.71,RU,2022-01-21 01:36:58
Olavarria,-36.8927,-60.3225,74.01,89,100,13.51,AR,2022-01-21 01:36:58
Ouadda,8.0777,22.4007,65.3,23,55,7.38,CF,2022-01-21 01:36:59
Mogadishu,2.0371,45.3438,76.71,81,82,17.74,SO,2022-01-21 01:33:31
Muzhi,65.3667,64.6667,14.81,89,100,15.7,RU,2022-01-21 01:36:59
Stephenville,32.2207,-98.2023,31.68,34,0,4.61,US,2022-01-21 01:36:59
Makat,47.6469,53.3463,22.28,96,97,5.5,KZ,2022-01-21 01:37:00
Port Macquarie,-31.4333,152.9167,75.16,63,94,13.44,AU,2022-01-21 01:37:00
Jingdezhen,29.2947,117.2079,49.87,75,100,4.99,CN,2022-01-21 01:37:00
Mopipi,-21.1833,24.8833,72.84,46,84,12.64,BW,2022-01-21 01:37:01
Oga,46.4631,10.347,21.74,96,82,8.41,IT,2022-01-21 01:37:01
Bardiyah,31.7561,25.0865,50.14,59,4,12.73,LY,2022-01-21 01:37:01
Turukhansk,65.8167,87.9833,7.5,94,100,15.43,RU,2022-01-21 01:37:02
Plettenberg Bay,-34.0527,23.3716,66.51,90,32,2.48,ZA,2022-01-21 01:37:02
Katsuura,35.1333,140.3,42.91,41,84,22.24,JP,2022-01-21 01:37:02
Polyarnyy,69.1989,33.4478,25.27,88,99,14.2,RU,2022-01-21 01:37:02
Tekeli,44.83,78.8239,16.86,65,12,10.89,KZ,2022-01-21 01:37:03
Oussouye,12.485,-16.5469,73.58,81,68,6.17,SN,2022-01-21 01:37:03
Geraldton,-28.7667,114.6,102.61,8,0,18.41,AU,2022-01-21 01:37:03
Bambous Virieux,-20.3428,57.7575,80.85,89,75,14.97,MU,2022-01-21 01:37:04
Huilong,31.8111,121.655,49.03,66,100,11.5,CN,2022-01-21 01:37:04
Freeport,40.6576,-73.5832,29.25,53,0,8.01,US,2022-01-21 01:35:18
Cayenne,4.9333,-52.3333,79.09,87,75,5.01,GF,2022-01-21 01:37:04
Shubarshi,48.5872,57.1869,4.98,88,89,5.14,KZ,2022-01-21 01:37:05
Batemans Bay,-35.7167,150.1833,72.99,55,64,7.16,AU,2022-01-21 01:38:05
Bucerias,20.75,-105.3333,76.98,78,100,3.44,MX,2022-01-21 01:37:40
Novo Aripuana,-5.1206,-60.3797,74.52,96,100,1.88,BR,2022-01-21 01:38:06
Jaora,23.6333,75.1333,58.44,68,0,2.21,IN,2022-01-21 01:38:06
Ambilobe,-13.2,49.05,73.11,97,97,2.15,MG,2022-01-21 01:38:06
Chama,47.1821,8.4636,35.82,100,75,1.14,CH,2022-01-21 01:38:07
Yerbogachen,61.2767,108.0108,8.1,96,100,6.24,RU,2022-01-21 01:38:07
Cabo San Lucas,22.8909,-109.9124,73.51,65,75,6.91,MX,2022-01-21 01:37:09
Bundaberg,-24.85,152.35,78.22,76,75,5.01,AU,2022-01-21 01:38:07
Esmeraldas,-19.7625,-44.3139,76.24,88,0,2.71,BR,2022-01-21 01:38:08
Tarko-Sale,64.9225,77.785,10.31,93,17,15.59,RU,2022-01-21 01:38:08
Moundou,8.5667,16.0833,67.12,24,100,5.19,TD,2022-01-21 01:38:08
Iskateley,67.6803,53.1512,20.93,93,100,14.63,RU,2022-01-21 01:38:09
Constantine,36.365,6.6147,35.01,93,0,1.14,DZ,2022-01-21 01:38:09
San Policarpo,12.1791,125.5072,79.95,82,96,12.57,PH,2022-01-21 01:38:09
Vilyuysk,63.7553,121.6247,-5.93,100,100,3.76,RU,2022-01-21 01:38:10
Vila Do Maio,15.1333,-23.2167,72.39,80,100,13.06,CV,2022-01-21 01:38:10
Kahului,20.8947,-156.47,82.42,72,40,6.91,US,2022-01-21 01:38:10
Poum,-20.2333,164.0167,81.77,76,100,7.07,NC,2022-01-21 01:38:11
Fallon,39.4735,-118.7774,49.87,43,40,5.75,US,2022-01-21 01:36:01
Inuvik,68.3499,-133.7218,-17.39,76,20,4.61,CA,2022-01-21 01:38:11
Muskegon,43.3,-86.1334,18.21,57,100,4.61,US,2022-01-21 01:38:11
Tinskoy,56.1525,96.9161,-1.46,99,97,2.53,RU,2022-01-21 01:38:12
Leshukonskoye,64.8989,45.7622,28.49,96,100,9.69,RU,2022-01-21 01:38:12
Havoysund,70.9963,24.6622,29.28,66,100,23.51,NO,2022-01-21 01:38:12
Mandapam,9.2833,79.1167,77.72,68,93,6.55,IN,2022-01-21 01:38:13
Alcains,39.9164,-7.4566,41.85,82,0,4.81,PT,2022-01-21 01:38:13
The Valley,18.217,-63.0578,78.66,71,0,23.73,AI,2022-01-21 01:38:13
Farmington,36.7281,-108.2187,38.7,39,0,6.91,US,2022-01-21 01:33:57
Hunchun,42.8675,130.3581,12.43,51,10,4.99,CN,2022-01-21 01:38:14
Vangaindrano,-23.35,47.6,71.65,91,90,7.05,MG,2022-01-21 01:38:14
Buchanan,5.8808,-10.0467,77.7,82,100,1.97,LR,2022-01-21 01:38:14
Vanimo,-2.6741,141.3028,81.88,84,36,4.97,PG,2022-01-21 01:38:15
Saint-Joseph,-21.3667,55.6167,77.36,81,32,6.31,RE,2022-01-21 01:38:15
Tazovskiy,67.4667,78.7,11.82,88,99,17.56,RU,2022-01-21 01:38:15
Morant Bay,17.8815,-76.4093,80.22,82,14,10.94,JM,2022-01-21 01:38:16
Iberia,29.9502,-91.7507,38.05,75,100,17.27,US,2022-01-21 01:38:16
Zambezi,-13.5432,23.1047,62.69,95,100,3.02,ZM,2022-01-21 01:38:16
Norcasia,5.5778,-74.8852,72.99,86,78,3.29,CO,2022-01-21 01:38:16
Zabol,32.25,67.25,32.23,60,9,8.63,AF,2022-01-21 01:38:17
Bianzhuang,34.8486,118.0447,32.54,45,100,8.9,CN,2022-01-21 01:38:17
Vilhena,-12.7406,-60.1458,68.58,98,100,3.78,BR,2022-01-21 01:38:18
Vao,-22.6667,167.4833,76.44,89,100,16.84,NC,2022-01-21 01:38:18
Rio Gallegos,-51.6226,-69.2181,60.85,63,20,29.93,AR,2022-01-21 01:38:18
Yanam,16.7333,82.2167,70.2,92,33,2.46,IN,2022-01-21 01:38:19
Khorinsk,52.1657,109.7726,-0.44,96,87,0.47,RU,2022-01-21 01:39:19
Bima,-8.4667,118.7167,82.98,72,100,3.11,ID,2022-01-21 01:39:19
Boa Vista,2.8197,-60.6733,84.18,58,0,10.36,BR,2022-01-21 01:39:19
Brigantine,39.4101,-74.3646,32.02,63,20,12.66,US,2022-01-21 01:39:20
Kapchorwa,1.3965,34.4509,58.41,62,93,4.03,UG,2022-01-21 01:39:20
Emerald,-23.5333,148.1667,84.34,54,100,16.11,AU,2022-01-21 01:37:26
Toamasina,-18.1667,49.3833,71.6,100,75,14.97,MG,2022-01-21 01:39:21
Slave Lake,55.2834,-114.769,37.38,87,100,29.93,CA,2022-01-21 01:39:21
Severo-Kurilsk,50.6789,156.125,31.42,80,100,26.28,RU,2022-01-21 01:39:21
Taltal,-25.4,-70.4833,69.28,73,34,5.14,CL,2022-01-21 01:39:21
Ituporanga,-27.4144,-49.6025,71.62,93,50,2.42,BR,2022-01-21 01:39:22
Salekhard,66.53,66.6019,14.54,93,100,15.79,RU,2022-01-21 01:39:22
Athabasca,54.7169,-113.2854,35.29,86,93,19.1,CA,2022-01-21 01:39:22
Saint-Georges,12.0564,-61.7485,76.68,78,20,5.75,GD,2022-01-21 01:39:23
Tsumeb,-19.2333,17.7167,65.75,81,100,4.99,NA,2022-01-21 01:39:23
Vila,42.0304,-8.1588,34.68,89,2,4.41,PT,2022-01-21 01:39:23
Angoram,-4.0625,144.0661,89.98,59,61,3.71,PG,2022-01-21 01:39:24
Port Blair,11.6667,92.75,73.44,94,40,2.3,IN,2022-01-21 01:39:24
Portland,45.5234,-122.6762,51.85,81,75,1.99,US,2022-01-21 01:37:00
Oliveira Dos Brejinhos,-12.3169,-42.8961,70.93,76,94,2.8,BR,2022-01-21 01:39:24
Udachnyy,66.4167,112.4,-17.55,99,46,5.91,RU,2022-01-21 01:39:25
Lauria,40.0465,15.8358,41.16,90,91,8.03,IT,2022-01-21 01:39:25
Velingara,13.15,-14.1167,73.87,21,21,2.28,SN,2022-01-21 01:39:25
Kailua,21.4022,-157.7394,82.38,66,75,5.75,US,2022-01-21 01:39:26
Statesboro,32.4488,-81.7832,56.73,94,100,0.0,US,2022-01-21 01:39:26
Kyra,49.5776,111.9753,7.2,93,100,1.03,RU,2022-01-21 01:37:34
Byron Bay,-28.65,153.6167,79.05,60,73,19.08,AU,2022-01-21 01:38:08
Pundaguitan,6.3711,126.1689,80.62,75,73,9.75,PH,2022-01-21 01:39:26
Banna,17.98,120.655,81.19,55,47,3.44,PH,2022-01-21 01:39:27
Aksarka,66.5606,67.7975,12.88,91,100,19.75,RU,2022-01-21 01:39:27
Ballina,-28.8667,153.5667,76.96,66,40,16.11,AU,2022-01-21 01:35:04
Nalut,30.3333,10.85,45.48,51,0,6.67,LY,2022-01-21 01:39:27
Plymouth,41.8334,-70.8328,31.78,63,0,1.01,US,2022-01-21 01:39:28
Namatanai,-3.6667,152.4333,83.34,73,100,9.89,PG,2022-01-21 01:39:28
Calvinia,-31.4707,19.776,74.62,19,10,3.71,ZA,2022-01-21 01:39:28
Sangar,63.9242,127.4739,-23.26,97,100,7.85,RU,2022-01-21 01:39:29
Wajima,37.4,136.9,30.88,69,75,6.91,JP,2022-01-21 01:39:29
Aberdeen,57.1437,-2.0981,42.49,82,100,6.91,GB,2022-01-21 01:39:29
Flinders,-34.5833,150.8552,73.8,66,83,11.03,AU,2022-01-21 01:39:30
Terebovlya,49.3019,25.71,29.23,87,100,20.38,UA,2022-01-21 01:39:30
Carutapera,-1.195,-46.02,76.95,87,15,6.22,BR,2022-01-21 01:39:30
Hambantota,6.1241,81.1185,68.34,100,82,2.3,LK,2022-01-21 01:39:31
Polewali,-3.4324,119.3435,75.24,96,100,4.18,ID,2022-01-21 01:39:31
Dalbandin,28.8947,64.4101,56.25,66,0,3.85,PK,2022-01-21 01:39:31
San Jose,37.3394,-121.895,62.98,65,40,5.75,US,2022-01-21 01:38:25
Clyde River,70.4692,-68.5914,-1.97,84,96,4.61,CA,2022-01-21 01:35:25
Olot,42.181,2.4901,43.11,77,0,3.15,ES,2022-01-21 01:39:32
Moose Factory,51.2585,-80.6094,-11.2,77,0,12.66,CA,2022-01-21 01:39:32
Pisco,-13.7,-76.2167,68.02,92,67,6.29,PE,2022-01-21 01:40:32
Gold Coast,-28.0,153.4333,83.34,71,75,3.0,AU,2022-01-21 01:38:17
Quelimane,-17.8786,36.8883,70.05,89,4,4.72,MZ,2022-01-21 01:40:33
Udaipur,24.5712,73.6918,50.9,66,0,2.98,IN,2022-01-21 01:36:41
Lebyazhye,55.2689,66.4947,3.09,96,100,3.89,RU,2022-01-21 01:40:33
Rivers,50.0308,-100.2403,-6.65,95,100,6.85,CA,2022-01-21 01:40:34
Mattru,7.6244,-11.8332,72.01,96,98,1.72,SL,2022-01-21 01:37:29
Camana,-16.6228,-72.7111,72.19,87,97,7.96,PE,2022-01-21 01:37:31
Saryozek,44.3583,77.9753,22.6,87,4,3.87,KZ,2022-01-21 01:40:34
Bam,29.106,58.357,49.71,41,0,9.04,IR,2022-01-21 01:40:34
Dakar,14.6937,-17.4441,72.48,74,91,10.92,SN,2022-01-21 01:40:35
Fort Nelson,58.8053,-122.7002,-0.81,71,75,12.66,CA,2022-01-21 01:40:35
Valdivia,-39.8142,-73.2459,51.35,97,26,2.13,CL,2022-01-21 01:40:35
Aksu,41.1231,80.2644,24.22,48,7,4.41,CN,2022-01-21 01:40:36
Richards Bay,-28.783,32.0377,68.43,92,8,5.82,ZA,2022-01-21 01:40:36
Fukue,32.6881,128.8419,46.76,57,75,9.22,JP,2022-01-21 01:40:36
Sinegorye,62.0788,150.477,-12.96,63,1,2.91,RU,2022-01-21 01:40:36
Jiangkou,25.4872,119.1986,49.89,74,96,14.79,CN,2022-01-21 01:40:37
Souillac,-20.5167,57.5167,80.98,89,75,14.97,MU,2022-01-21 01:40:37
Mount Gambier,-37.8333,140.7667,84.11,26,2,21.85,AU,2022-01-21 01:40:37
Turan,16.0678,108.2208,69.78,94,75,2.3,VN,2022-01-21 01:40:38
Bannu,32.9854,70.6027,51.66,72,62,2.77,PK,2022-01-21 01:40:38
Muli,2.9167,73.5667,81.0,69,80,9.64,MV,2022-01-21 01:40:39
Orizona,-17.0314,-48.2958,66.07,70,0,3.04,BR,2022-01-21 01:40:39
Chumikan,54.7183,135.315,-5.89,84,9,20.27,RU,2022-01-21 01:40:39
Omsukchan,62.5333,155.8,-10.03,62,0,2.53,RU,2022-01-21 01:40:40
Sambava,-14.2667,50.1667,75.33,90,100,3.65,MG,2022-01-21 01:40:40
Waipawa,-41.4122,175.5153,66.31,50,22,11.83,NZ,2022-01-21 01:40:40
Rocha,-34.4833,-54.3333,74.66,94,95,11.39,UY,2022-01-21 01:40:40
Birao,10.2849,22.7882,64.02,20,6,9.22,CF,2022-01-21 01:40:41
Thessalon,46.2501,-83.5666,7.56,97,10,2.77,CA,2022-01-21 01:40:41
Zaraza,9.3503,-65.3245,75.67,72,26,9.24,VE,2022-01-21 01:40:41
Stornoway,58.2093,-6.3865,42.93,97,100,3.0,GB,2022-01-21 01:40:42
Srednekolymsk,67.45,153.6833,-39.17,99,54,6.26,RU,2022-01-21 01:38:43
Alamos,27.0167,-108.9333,65.71,38,0,2.06,MX,2022-01-21 01:40:42
Progreso,21.2833,-89.6667,77.11,81,7,14.03,MX,2022-01-21 01:40:42
Susangerd,31.5608,48.1831,39.22,42,0,14.56,IR,2022-01-21 01:40:43
Rupert,42.6191,-113.6772,33.28,86,100,5.75,US,2022-01-21 01:40:43
Iwaki,37.05,140.8833,39.06,64,73,7.0,JP,2022-01-21 01:40:44
Mangrol,21.1167,70.1167,70.66,87,5,8.55,IN,2022-01-21 01:40:44
Vladimirescu,46.15,21.4,32.77,86,0,6.91,RO,2022-01-21 01:40:44
Tatui,-23.3556,-47.8569,70.75,84,7,5.32,BR,2022-01-21 01:40:45
Ormond Beach,29.2858,-81.0559,68.14,69,40,1.01,US,2022-01-21 01:40:45
Urusha,54.05,122.9,-7.62,77,4,1.36,RU,2022-01-21 01:40:45
Ozernovskiy,51.5,156.5167,32.07,73,100,8.57,RU,2022-01-21 01:40:45
Liverpool,53.4106,-2.9779,38.82,87,100,1.01,GB,2022-01-21 01:36:25
Qandala,11.472,49.8728,73.63,77,35,2.06,SO,2022-01-21 01:40:46
Mazagao,-0.115,-51.2894,82.45,98,42,3.85,BR,2022-01-21 01:40:46
Raeren,50.6677,6.1168,33.24,93,98,5.32,BE,2022-01-21 01:41:46
Arrecife,28.963,-13.5477,66.27,63,100,8.05,ES,2022-01-21 01:41:47
Plast,54.3691,60.8136,-8.95,100,75,4.81,RU,2022-01-21 01:41:48
Pahrump,36.2083,-115.9839,57.25,32,5,1.01,US,2022-01-21 01:41:49
Senneterre,48.3835,-77.2328,-18.18,99,41,3.33,CA,2022-01-21 01:41:49
Balaka,-14.9793,34.9558,62.44,92,10,4.36,MW,2022-01-21 01:41:49
Westport,41.1415,-73.3579,28.74,56,0,4.0,US,2022-01-21 01:38:25
Alexandria,31.2156,29.9553,48.74,76,40,2.3,EG,2022-01-21 01:38:57
Tuatapere,-46.1333,167.6833,58.82,67,47,11.32,NZ,2022-01-21 01:41:50
Hit,33.6416,42.8251,36.37,36,0,9.6,IQ,2022-01-21 01:41:50
Dunedin,-45.8742,170.5036,64.8,56,99,18.01,NZ,2022-01-21 01:41:50
Staraya Toropa,56.2801,31.6702,25.18,90,99,10.31,RU,2022-01-21 01:41:51
Coihueco,-36.6167,-71.8333,63.34,34,0,8.05,CL,2022-01-21 01:41:51
Correntina,-13.3433,-44.6367,69.66,82,4,2.08,BR,2022-01-21 01:41:51
Shadrinsk,56.0852,63.6335,-4.68,95,12,6.2,RU,2022-01-21 01:41:52
Iralaya,15.0,-83.2333,77.25,85,10,9.37,HN,2022-01-21 01:41:52
Arnissa,40.8,21.8333,34.59,54,10,6.6,GR,2022-01-21 01:41:52
Bandarbeyla,9.4942,50.8122,75.16,76,57,17.56,SO,2022-01-21 01:41:53
Lincoln,40.8,-96.667,12.29,54,0,1.99,US,2022-01-21 01:38:19
Kirove,47.6531,35.6951,32.83,91,100,13.71,UA,2022-01-21 01:41:53
Dicabisagan,17.0818,122.4157,73.76,93,100,6.11,PH,2022-01-21 01:41:53
Belmonte,-15.8631,-38.8828,77.5,78,0,4.88,BR,2022-01-21 01:41:54
Kathu,7.9178,98.3332,78.62,73,8,12.39,TH,2022-01-21 01:41:54
Hualmay,-11.0964,-77.6139,70.97,87,96,10.07,PE,2022-01-21 01:41:54
Mangai,-4.05,19.5333,71.65,92,100,1.05,CD,2022-01-21 01:41:55
Hay River,60.8156,-115.7999,-7.62,77,100,27.63,CA,2022-01-21 01:41:55
Bodden Town,19.2833,-81.25,78.8,87,20,1.01,KY,2022-01-21 01:41:08
Nong Bua,15.8646,100.5858,79.9,68,100,7.43,TH,2022-01-21 01:41:55
Salmas,38.1973,44.7653,9.59,70,0,6.58,IR,2022-01-21 01:41:56
Funtua,11.5233,7.3081,53.62,25,33,12.37,NG,2022-01-21 01:41:56
Alekseyevsk,57.8406,108.3492,1.06,96,97,3.62,RU,2022-01-21 01:41:56
Mayo,38.8876,-76.5119,33.17,59,0,8.99,US,2022-01-21 01:41:56
Hoa Binh,20.8133,105.3383,60.69,86,100,2.21,VN,2022-01-21 01:41:57
Tombouctou,20.0,-3.0,59.2,21,0,10.63,ML,2022-01-21 01:41:57
Motala,58.5371,15.0365,29.98,52,2,21.09,SE,2022-01-21 01:41:57
Mossendjo,-2.9506,12.7261,68.16,99,100,1.1,CG,2022-01-21 01:41:58
Along,28.1667,94.7667,54.48,56,92,0.69,IN,2022-01-21 01:41:58
Sterling,39.0062,-77.4286,31.86,57,40,1.01,US,2022-01-21 01:41:58
Ippy,6.2679,21.2247,72.88,26,95,7.52,CF,2022-01-21 01:41:59
Waingapu,-9.6567,120.2641,82.27,73,100,11.77,ID,2022-01-21 01:41:59
Goma,-1.6792,29.2228,61.92,91,100,2.1,CD,2022-01-21 01:41:59
Khani,41.9563,42.9566,24.37,91,100,4.07,GE,2022-01-21 01:42:00
Magdalena,14.1999,121.429,81.72,69,48,8.77,PH,2022-01-21 01:42:00
Sao Felix Do Xingu,-6.6447,-51.995,70.99,97,64,1.72,BR,2022-01-21 01:42:00
Saposoa,-6.934,-76.7716,70.41,98,29,3.27,PE,2022-01-21 01:42:01
Southbridge,42.0751,-72.0334,26.98,50,100,1.99,US,2022-01-21 01:41:59
Matamoros,25.5333,-103.25,60.91,39,100,5.75,MX,2022-01-21 01:40:00
Yining,29.0361,114.5636,48.51,85,100,2.26,CN,2022-01-21 01:43:01
Baruun-Urt,46.6806,113.2792,1.74,74,100,9.19,MN,2022-01-21 01:43:01
Sanmenxia,34.7747,111.1814,27.77,82,100,11.97,CN,2022-01-21 01:43:02
Ponta Do Sol,32.6667,-17.1,65.03,81,88,15.43,PT,2022-01-21 01:43:02
Cravo Norte,6.3017,-70.2041,81.95,44,96,6.55,CO,2022-01-21 01:43:02
Haines Junction,60.7522,-137.5108,4.95,78,100,1.14,CA,2022-01-21 01:43:03
Ponta Delgada,37.7333,-25.6667,61.52,77,20,13.8,PT,2022-01-21 01:43:03
Birjand,32.8663,59.2211,32.47,74,0,4.61,IR,2022-01-21 01:43:03
Karratha,-20.7377,116.8463,94.32,41,0,7.56,AU,2022-01-21 01:43:04
Kangavar,34.5043,47.9653,18.88,92,20,1.66,IR,2022-01-21 01:43:04
Akyab,20.15,92.9,64.06,74,0,5.7,MM,2022-01-21 01:43:04
Pangoa,-12.1167,-73.0,68.49,95,93,1.97,PE,2022-01-21 01:43:05
Rabo De Peixe,37.8,-25.5833,60.31,98,20,13.8,PT,2022-01-21 01:43:05
Hinton,53.4001,-117.5857,32.04,73,100,9.48,CA,2022-01-21 01:43:05
Morehead,37.2711,-87.1764,24.55,65,100,5.01,US,2022-01-21 01:43:06
Komsomolskiy,40.4272,71.7189,33.22,80,0,6.91,UZ,2022-01-21 01:43:06
Corinto,37.9407,22.9573,51.46,77,0,6.15,GR,2022-01-21 01:38:45
Nuuk,64.1835,-51.7216,16.88,78,100,11.99,GL,2022-01-21 01:40:44
Great Bend,38.3645,-98.7648,20.03,42,100,4.61,US,2022-01-21 01:39:03
Chacabuco,-34.6417,-60.4739,74.8,95,100,6.96,AR,2022-01-21 01:43:07
Jona,47.2298,8.8388,35.89,96,94,3.53,CH,2022-01-21 01:43:07
Aquin,18.2833,-73.4,75.79,78,0,3.98,HT,2022-01-21 01:43:07
Gat,31.61,34.7642,47.39,100,16,6.15,IL,2022-01-21 01:43:08
Auki,-8.7676,160.7034,76.37,94,100,4.88,SB,2022-01-21 01:43:08
Sri Aman,1.2376,111.4621,77.09,94,40,2.3,MY,2022-01-21 01:43:08
Zhigansk,66.7697,123.3711,-15.25,97,100,16.55,RU,2022-01-21 01:43:08
Misratah,32.3754,15.0925,55.49,56,53,6.04,LY,2022-01-21 01:43:09
Changji,44.0167,87.3167,23.79,93,100,2.24,CN,2022-01-21 01:43:09
Avera,33.194,-82.5271,51.67,93,100,6.93,US,2022-01-21 01:43:09
Karwar,14.8,74.1333,70.07,61,90,4.14,IN,2022-01-21 01:43:10
Pecos,31.4229,-103.4932,35.69,35,100,5.75,US,2022-01-21 01:43:10
Sorong,-0.8833,131.25,80.46,83,100,4.88,ID,2022-01-21 01:43:10
Krasnokholmskiy,55.9873,55.0466,6.94,96,99,7.29,RU,2022-01-21 01:43:11
Sistranda,63.7256,8.834,38.89,88,100,23.69,NO,2022-01-21 01:41:28
Mountain Home,43.133,-115.6912,32.79,100,100,8.05,US,2022-01-21 01:38:50
Astoria,46.1879,-123.8313,46.29,93,100,1.01,US,2022-01-21 01:43:11
Kampong Thum,12.7111,104.8887,77.97,62,89,8.43,KH,2022-01-21 01:43:11
Pointe Michel,15.25,-61.3833,77.85,73,26,21.41,DM,2022-01-21 01:43:12
Senhor Do Bonfim,-10.4614,-40.1894,69.33,84,33,3.38,BR,2022-01-21 01:43:12
Shupiyan,33.7167,74.8333,27.66,92,91,2.68,IN,2022-01-21 01:43:12
Taree,-31.9,152.4667,78.12,57,75,16.11,AU,2022-01-21 01:43:13
Sechura,-5.5569,-80.8222,73.15,76,17,13.78,PE,2022-01-21 01:43:13
Komyshnya,50.1859,33.684,27.93,97,100,10.76,UA,2022-01-21 01:43:14
Coutances,49.05,-1.4333,42.15,77,96,5.77,FR,2022-01-21 01:43:14
Kamina,-8.7386,24.9906,62.11,97,100,1.36,CD,2022-01-21 01:43:14
Labuhan,-6.8844,112.2051,77.13,82,100,5.41,ID,2022-01-21 01:44:15
Talara,-4.5772,-81.2719,72.41,82,98,17.92,PE,2022-01-21 01:44:15
Mirabad,30.4362,61.8383,51.19,53,0,1.68,AF,2022-01-21 01:44:15
Santa Cruz Cabralia,-16.2781,-39.0247,77.23,88,40,2.3,BR,2022-01-21 01:44:16
Arlit,18.7369,7.3853,55.0,24,0,6.35,NE,2022-01-21 01:44:16
Turayf,31.6725,38.6637,25.05,100,0,0.0,SA,2022-01-21 01:44:16
Bonthe,7.5264,-12.505,77.22,85,79,2.95,SL,2022-01-21 01:44:16
Cocobeach,1.0002,9.5823,78.75,83,98,4.81,GA,2022-01-21 01:44:17
Yar-Sale,66.8333,70.8333,12.7,89,99,21.52,RU,2022-01-21 01:44:17
Hare Bay,48.8499,-54.0148,35.2,98,100,7.96,CA,2022-01-21 01:44:17
Antsohihy,-14.8796,47.9875,72.7,98,95,4.47,MG,2022-01-21 01:44:18
Tingo Maria,-9.2895,-76.0088,69.91,98,100,1.99,PE,2022-01-21 01:44:18
Laguna,38.421,-121.4238,62.11,70,0,0.0,US,2022-01-21 01:41:10
Prieska,-29.6641,22.7474,78.94,47,95,7.2,ZA,2022-01-21 01:44:18
Palmer,42.1584,-72.3287,26.15,49,75,1.01,US,2022-01-21 01:44:19
Manadhoo,5.7667,73.3833,80.62,70,100,7.45,MV,2022-01-21 01:44:19
Vyshkov,52.4764,31.6873,26.49,88,87,10.87,RU,2022-01-21 01:44:19
Mao,39.8885,4.2658,43.36,93,0,3.44,ES,2022-01-21 01:44:20
Mormugao,15.4,73.8,69.06,88,88,4.61,IN,2022-01-21 01:41:10
Krasnokamensk,50.0979,118.0369,-2.29,95,93,2.1,RU,2022-01-21 01:44:20
Gusau,12.1628,6.6614,57.78,20,3,12.84,NG,2022-01-21 01:44:20
Riyadh,24.6877,46.7219,42.94,48,0,15.37,SA,2022-01-21 01:40:06
Nha Trang,12.25,109.1833,78.8,72,91,5.75,VN,2022-01-21 01:44:21
Alihe,50.5667,123.7167,3.61,74,97,0.96,CN,2022-01-21 01:44:21
Praia,14.9215,-23.5087,72.14,78,75,9.22,CV,2022-01-21 01:44:21
Palmares Do Sul,-30.2578,-50.5097,77.34,87,40,11.61,BR,2022-01-21 01:44:22
Margate,51.3813,1.3862,37.69,77,36,5.99,GB,2022-01-21 01:44:22
Bagdarin,54.4333,113.6,2.5,94,96,0.78,RU,2022-01-21 01:44:22
Sao Jose Da Coroa Grande,-8.8978,-35.1478,78.87,81,16,6.69,BR,2022-01-21 01:44:23
Tomatlan,19.9333,-105.25,72.37,66,100,3.76,MX,2022-01-21 01:44:23
Hitoyoshi,32.2167,130.75,41.72,36,24,2.19,JP,2022-01-21 01:44:23
Allanridge,-27.7543,26.6438,61.61,87,0,7.83,ZA,2022-01-21 01:44:23
Prince Rupert,54.3161,-130.3201,42.49,99,100,0.0,CA,2022-01-21 01:44:24
Najran,17.4924,44.1277,57.85,56,0,3.87,SA,2022-01-21 01:44:24
Porto Recanati,43.4365,13.6613,40.87,84,100,5.41,IT,2022-01-21 01:44:24
